[
  {
    "id": "poi_001",
    "name": "故宫博物院",
    "type": "museum",
    "address": "北京市东城区景山前街4号",
    "description": "故宫博物院，旧称紫禁城，是中国明清两代的皇家宫殿，世界上现存规模最大、保存最完整的木质结构古建筑群。故宫占地面积72万平方米，建筑面积约15万平方米，有大小宫殿七十多座，房屋九千余间。故宫博物院收藏了大量珍贵文物，是中国最大的古代文化艺术博物馆。",
    "rating": 4.8,
    "business_hours": "08:30-17:00",
    "ticket_price": 60,
    "tags": ["历史", "文化", "博物馆", "宫殿", "世界遗产"]
  },
  {
    "id": "poi_002", 
    "name": "天安门广场",
    "type": "landmark",
    "address": "北京市东城区天安门广场",
    "description": "天安门广场是世界上最大的城市广场之一，面积约44万平方米。广场中央矗立着人民英雄纪念碑，南侧是毛主席纪念堂，北侧是天安门城楼，东侧是中国国家博物馆，西侧是人民大会堂。这里是北京的地标性建筑，也是重要的政治和文化中心。",
    "rating": 4.7,
    "business_hours": "全天开放",
    "ticket_price": 0,
    "tags": ["地标", "广场", "政治", "历史"]
  },
  {
    "id": "poi_003",
    "name": "颐和园",
    "type": "park",
    "address": "北京市海淀区新建宫门路19号",
    "description": "颐和园是清代皇家园林，被誉为'皇家园林博物馆'。园内以昆明湖和万寿山为基址，以杭州西湖为蓝本，汲取江南园林的设计手法而建成的一座大型山水园林。园内建筑精美，景色优美，是中国古典园林的代表作。",
    "rating": 4.6,
    "business_hours": "06:30-18:00",
    "ticket_price": 30,
    "tags": ["园林", "历史", "文化", "公园", "世界遗产"]
  },
  {
    "id": "poi_004",
    "name": "长城八达岭",
    "type": "landmark",
    "address": "北京市延庆区军都山关沟",
    "description": "八达岭长城是明长城中保存最好的一段，也是最具代表性的一段。这里山势险峻，城墙坚固，是万里长城的精华所在。登上长城，可以俯瞰群山，感受古代军事防御工程的雄伟壮观。",
    "rating": 4.5,
    "business_hours": "07:30-17:30",
    "ticket_price": 40,
    "tags": ["长城", "历史", "军事", "世界遗产", "登山"]
  },
  {
    "id": "poi_005",
    "name": "天坛公园",
    "type": "park",
    "address": "北京市东城区天坛东路",
    "description": "天坛是明清两代帝王祭天、祈谷和祈雨的场所，是中国现存最大的古代帝王祭祀建筑群。园内建筑布局严谨，建筑形式独特，是中国古代建筑艺术的杰作。祈年殿是园内最著名的建筑，其独特的圆形设计体现了古代'天圆地方'的宇宙观。",
    "rating": 4.6,
    "business_hours": "06:00-22:00",
    "ticket_price": 15,
    "tags": ["历史", "文化", "祭祀", "建筑", "世界遗产"]
  },
  {
    "id": "poi_006",
    "name": "北海公园",
    "type": "park",
    "address": "北京市西城区文津街1号",
    "description": "北海公园是中国现存最古老、最完整、最具综合性和代表性的皇家园林之一。园内以北海为中心，水面占全园面积的一半以上。园内建筑布局精巧，景色优美，是北京城内著名的游览胜地。",
    "rating": 4.4,
    "business_hours": "06:30-20:30",
    "ticket_price": 10,
    "tags": ["园林", "历史", "公园", "湖泊", "文化"]
  },
  {
    "id": "poi_007",
    "name": "景山公园",
    "type": "park",
    "address": "北京市东城区景山前街44号",
    "description": "景山公园位于故宫北侧，是一座历史悠久的皇家园林。园内景山是北京城的制高点，登上山顶可以俯瞰整个故宫和北京城。园内古树参天，环境幽静，是观赏故宫全景的最佳地点。",
    "rating": 4.3,
    "business_hours": "06:30-21:00",
    "ticket_price": 2,
    "tags": ["公园", "历史", "观景", "园林"]
  },
  {
    "id": "poi_008",
    "name": "什刹海",
    "type": "scenic",
    "address": "北京市西城区什刹海地区",
    "description": "什刹海是北京城内最大的历史文化保护区，由前海、后海和西海三个湖泊组成。这里保存着大量传统胡同和四合院，是体验老北京风情的最佳去处。夏季可以划船，冬季可以滑冰，四季都有不同的美景。",
    "rating": 4.5,
    "business_hours": "全天开放",
    "ticket_price": 0,
    "tags": ["湖泊", "历史", "胡同", "文化", "休闲"]
  },
  {
    "id": "poi_009",
    "name": "南锣鼓巷",
    "type": "shopping",
    "address": "北京市东城区南锣鼓巷",
    "description": "南锣鼓巷是北京最古老的街区之一，也是著名的商业街。这里保存着完整的元代胡同肌理，街道两旁店铺林立，既有传统小吃，也有现代时尚店铺，是体验北京传统文化和现代生活的好去处。",
    "rating": 4.2,
    "business_hours": "全天开放",
    "ticket_price": 0,
    "tags": ["购物", "美食", "胡同", "文化", "时尚"]
  },
  {
    "id": "poi_010",
    "name": "798艺术区",
    "type": "art",
    "address": "北京市朝阳区酒仙桥路4号",
    "description": "798艺术区是北京著名的当代艺术区，由原国营798厂等电子工业老厂区改造而成。这里聚集了大量画廊、艺术工作室、设计公司和文化机构，是北京当代艺术的重要展示平台。",
    "rating": 4.1,
    "business_hours": "10:00-18:00",
    "ticket_price": 0,
    "tags": ["艺术", "创意", "工业", "文化", "现代"]
  },
  {
    "id": "poi_011",
    "name": "鸟巢",
    "type": "landmark",
    "address": "北京市朝阳区国家体育场路1号",
    "description": "国家体育场（鸟巢）是2008年北京奥运会的主场馆，由著名建筑师赫尔佐格和德梅隆设计。其独特的钢结构外观形似鸟巢，是北京的地标性建筑之一。现在主要用于体育赛事和文化活动。",
    "rating": 4.3,
    "business_hours": "09:00-19:00",
    "ticket_price": 50,
    "tags": ["体育", "建筑", "奥运", "现代", "地标"]
  },
  {
    "id": "poi_012",
    "name": "水立方",
    "type": "landmark",
    "address": "北京市朝阳区天辰东路11号",
    "description": "国家游泳中心（水立方）是2008年北京奥运会的游泳比赛场馆，其外观设计灵感来源于肥皂泡的几何结构。现在主要用于游泳、健身等体育活动，是北京重要的体育设施。",
    "rating": 4.2,
    "business_hours": "09:00-21:00",
    "ticket_price": 30,
    "tags": ["体育", "游泳", "奥运", "现代", "建筑"]
  },
  {
    "id": "poi_013",
    "name": "北京动物园",
    "type": "zoo",
    "address": "北京市西城区西直门外大街137号",
    "description": "北京动物园是中国最大的动物园之一，园内饲养着来自世界各地的珍稀动物。最著名的是大熊猫馆，这里的大熊猫是游客最喜爱的明星动物。园内环境优美，是亲子游的好去处。",
    "rating": 4.4,
    "business_hours": "07:30-17:30",
    "ticket_price": 15,
    "tags": ["动物园", "熊猫", "亲子", "动物", "教育"]
  },
  {
    "id": "poi_014",
    "name": "北京植物园",
    "type": "park",
    "address": "北京市海淀区香山卧佛寺路",
    "description": "北京植物园是中国最大的植物园之一，园内收集了来自世界各地的植物品种。园内环境优美，四季花开，是观赏植物、亲近自然的好去处。春季的樱花、秋季的红叶都很有名。",
    "rating": 4.3,
    "business_hours": "06:00-20:00",
    "ticket_price": 10,
    "tags": ["植物园", "自然", "花卉", "公园", "教育"]
  },
  {
    "id": "poi_015",
    "name": "香山公园",
    "type": "park",
    "address": "北京市海淀区买卖街40号",
    "description": "香山公园是北京著名的山地公园，以秋季红叶闻名。园内山势起伏，古树参天，环境幽静。秋季满山红叶，景色壮观，是北京观赏红叶的最佳地点之一。",
    "rating": 4.2,
    "business_hours": "06:00-18:00",
    "ticket_price": 10,
    "tags": ["公园", "红叶", "登山", "自然", "秋季"]
  },
  {
    "id": "poi_016",
    "name": "圆明园遗址公园",
    "type": "park",
    "address": "北京市海淀区清华西路28号",
    "description": "圆明园遗址公园是清代皇家园林的遗址，虽然大部分建筑在1860年被英法联军焚毁，但遗址仍能让人感受到昔日的辉煌。园内环境优美，是了解中国近代史的重要场所。",
    "rating": 4.1,
    "business_hours": "07:00-19:00",
    "ticket_price": 25,
    "tags": ["历史", "遗址", "园林", "文化", "教育"]
  },
  {
    "id": "poi_017",
    "name": "雍和宫",
    "type": "temple",
    "address": "北京市东城区雍和宫大街12号",
    "description": "雍和宫是北京最大的藏传佛教寺院，也是清代皇家寺院。寺内建筑宏伟，佛像众多，是了解藏传佛教文化的重要场所。每年都有大量游客和信徒前来参观朝拜。",
    "rating": 4.4,
    "business_hours": "09:00-16:30",
    "ticket_price": 25,
    "tags": ["寺庙", "佛教", "历史", "文化", "宗教"]
  },
  {
    "id": "poi_018",
    "name": "孔庙和国子监",
    "type": "museum",
    "address": "北京市东城区国子监街15号",
    "description": "孔庙和国子监是元明清三代皇家祭祀孔子的场所和最高学府。这里保存着大量古代建筑和文物，是了解中国古代教育制度和文化传统的重要场所。",
    "rating": 4.2,
    "business_hours": "08:30-17:00",
    "ticket_price": 30,
    "tags": ["历史", "文化", "教育", "建筑", "博物馆"]
  },
  {
    "id": "poi_019",
    "name": "恭王府",
    "type": "museum",
    "address": "北京市西城区前海西街17号",
    "description": "恭王府是清代恭亲王奕訢的府邸，是北京保存最完整的王府建筑群。府内建筑精美，园林雅致，是了解清代王府建筑和生活的重要场所。",
    "rating": 4.3,
    "business_hours": "08:30-17:00",
    "ticket_price": 40,
    "tags": ["历史", "王府", "建筑", "文化", "园林"]
  },
  {
    "id": "poi_020",
    "name": "北京天文馆",
    "type": "museum",
    "address": "北京市西城区西直门外大街138号",
    "description": "北京天文馆是中国第一座大型天文馆，馆内设有天象厅、宇宙剧场等设施，是了解天文知识、观赏星空的好去处。馆内经常举办天文科普活动。",
    "rating": 4.0,
    "business_hours": "09:00-17:00",
    "ticket_price": 10,
    "tags": ["天文", "科普", "教育", "科技", "博物馆"]
  }
] 